{
  "peoples": [
    {
      "id": "W0003",
      "date": "20",
      "area": "海港区",
      "track": [
        {
          "district": "河北省秦皇岛市海港区",
          "name": "红卫里社区",
          "location": {
            "lng": 119.577294,
            "lat": 39.940678
          },
          "accurate": 2
        },
        {
          "district": "河北省秦皇岛市海港区",
          "name": "秦皇岛市海阳农副产品批发市场",
          "location": {
            "lng": 119.554182,
            "lat": 39.95751
          },
          "accurate": 2
        },
        {
          "district": "河北省秦皇岛市卢龙县",
          "name": "秦皇岛市奥星食品有限公司",
          "location": {
            "lng": 118.899627,
            "lat": 39.900791
          },
          "accurate": 2
        },
        {
          "district": "河北省秦皇岛市抚宁区",
          "name": "河北宏都实业集团",
          "location": {
            "lng": 119.271367,
            "lat": 39.881817
          },
          "accurate": 2
        },
        {
          "district": "河北省秦皇岛市北戴河区",
          "name": "南戴河临时便民市场",
          "location": {
            "lng": 119.411223,
            "lat": 39.804032
          },
          "accurate": 2
        },
        {
          "district": "河北省秦皇岛市昌黎县",
          "name": "汇鑫速冻食品有限公司",
          "location": {
            "lng": 119.306508,
            "lat": 39.665998
          },
          "accurate": 2
        },
        {
          "district": "河北省唐山市路北区",
          "name": "盛华世家商业广场农贸水产综合批发市场",
          "location": {
            "lng": 119.306508,
            "lat": 39.665998
          },
          "accurate": 2
        }
      ]
    },
    {
      "id": "Q0001",
      "date": "19",
      "area": "高新区",
      "track": [
        "星河湾小区",
        {
          "district": "河北省唐山市路北区",
          "name": "远洋城",
          "origin": "远洋城",
          "location": {
            "lng": 118.175672,
            "lat": 39.667905
          },
          "accurate": 2
        },
        "海港经济开发区川菜小馆",
        {
          "district": "河北省唐山市乐亭县",
          "name": "鑫盛KTV",
          "origin": "京唐港鑫盛KTV",
          "location": {
            "lng": 118.987414,
            "lat": 39.235668
          },
          "accurate": 2
        },
        {
          "district": "河北省唐山市乐亭县",
          "name": "唐山佳华煤化工有限公司",
          "origin": "佳华煤化工有限公司",
          "location": {
            "lng": 119.033746,
            "lat": 39.258969
          },
          "accurate": 2
        },
        {
          "district": "河北省唐山市路北区",
          "name": "盛华世家商业广场农贸水产综合批发市场",
          "origin": "盛华市场",
          "location": {
            "lng": 118.144541,
            "lat": 39.696604
          },
          "accurate": 2
        },
        {
          "district": "河北省唐山市古冶区",
          "name": "唐钢古冶胜利小区",
          "origin": "古冶区唐钢胜利小区",
          "location": {
            "lng": 118.409881,
            "lat": 39.723445
          },
          "accurate": 2
        },
        {
          "district": "河北省唐山市古冶区",
          "name": "美乐饭店(唐山市古冶区渔政监督管理站东)",
          "origin": "美乐饭店",
          "location": {
            "lng": 118.409955,
            "lat": 39.7259
          },
          "accurate": 2
        },
        {
          "district": "河北省唐山市路南区",
          "name": "百汇石油加油站",
          "origin": "百汇石油加油站",
          "location": {
            "lng": 118.134416,
            "lat": 39.579543
          },
          "accurate": 2
        },
        {
          "district": "河北省唐山市路北区",
          "name": "唐山朝阳医院",
          "origin": "高新区朝阳医院",
          "location": {
            "lng": 118.174417,
            "lat": 39.694744
          },
          "accurate": 2
        }
      ]
    },
    {
      "id": "Q0014",
      "date": "21",
      "area": "高新区",
      "track": [
        "三益庄村",
        {
          "district": "河北省唐山市路北区",
          "name": "盛华世家商业广场农贸水产综合批发市场",
          "origin": "盛华市场",
          "location": {
            "lng": 118.144541,
            "lat": 39.696604
          },
          "accurate": 2
        }
      ]
    },
    {
      "id": "W0004",
      "date": "21",
      "area": "高新区",
      "track": [
        "高新老庄子镇锦绣花园小区",
        "詹官屯村",
        {
          "district": "河北省唐山市路北区",
          "name": "盛华世家商业广场农贸水产综合批发市场",
          "origin": "盛华市场",
          "location": {
            "lng": 118.144541,
            "lat": 39.696604
          },
          "accurate": 2
        },
        "宋各庄村",
        "路南新街"
      ]
    },
    {
      "id": "W0005",
      "date": "21",
      "area": "高新区",
      "track": [
        "詹官屯村",
        {
          "district": "河北省唐山市路北区",
          "name": "盛华世家商业广场农贸水产综合批发市场",
          "origin": "盛华市场",
          "location": {
            "lng": 118.144541,
            "lat": 39.696604
          },
          "accurate": 2
        },
        "老庄子村赵宇牙科诊所"
      ]
    },
    {
      "id": "W0006",
      "date": "21",
      "area": "高新区",
      "track": [
        "高新党家庄村",
        {
          "district": "河北省唐山市路北区",
          "name": "盛华世家商业广场农贸水产综合批发市场",
          "origin": "盛华市场",
          "location": {
            "lng": 118.144541,
            "lat": 39.696604
          },
          "accurate": 2
        },
        "建行高新支行",
        "保定市安新县端村镇大淀头村",
        "安新县医院"
      ]
    },
    {
      "id": "W0008",
      "date": "21",
      "area": "高新区",
      "track": [
        "承德市围场县三义永乡二地村",
        "高新盛华公寓",
        {
          "district": "河北省唐山市路北区",
          "name": "盛华世家商业广场农贸水产综合批发市场",
          "origin": "盛华市场",
          "location": {
            "lng": 118.144541,
            "lat": 39.696604
          },
          "accurate": 2
        }
      ]
    },
    {
      "id": "W0010",
      "date": "21",
      "area": "高新区",
      "track": [
        "高新毛家坨三村",
        {
          "district": "河北省唐山市路北区",
          "name": "盛华世家商业广场农贸水产综合批发市场",
          "origin": "盛华市场",
          "location": {
            "lng": 118.144541,
            "lat": 39.696604
          },
          "accurate": 2
        }
      ]
    },
    {
      "id": "W0016",
      "date": "21",
      "area": "高新区",
      "track": [
        "高新盛华公寓",
        {
          "district": "河北省唐山市路北区",
          "name": "盛华世家商业广场农贸水产综合批发市场",
          "origin": "盛华市场",
          "location": {
            "lng": 118.144541,
            "lat": 39.696604
          },
          "accurate": 2
        },
        "路北钓鱼台亲戚家用餐",
        "丰南通达韩国城",
        "山东省滨州市沾化区鲁北海产批发市场"
      ]
    },
    {
      "id": "W0024",
      "date": "21",
      "area": "高新区",
      "track": [
        "恒大学庭小区",
        "谊品生鲜超市",
        "唐钢国际工程公司"
      ]
    },
    {
      "id": "W0038",
      "date": "21",
      "area": "高新区",
      "track": [
        {
          "district": "河北省唐山市乐亭县",
          "name": "唐山佳华煤化工有限公司",
          "origin": "佳华煤化工有限公司",
          "location": {
            "lng": 119.033746,
            "lat": 39.258969
          },
          "accurate": 2
        },
        "俏巴妹烤鱼",
        "鑫丰大酒店",
        "高新龙华小区",
        "乐亭唐钢新区",
        "渔景海鲜楼",
        "路北龙泉西里小区"
      ]
    },
    {
      "id": "W0039",
      "date": "21",
      "area": "高新区",
      "track": [
        "路北红星楼市场",
        "爱琴海",
        {
          "district": "河北省唐山市路北区",
          "name": "八方购物广场",
          "origin": "八方购物广场",
          "location": {
            "lng": 118.161834,
            "lat": 39.632827
          },
          "accurate": 2
        },
        "星河湾小区",
        {
          "district": "河北省唐山市路北区",
          "name": "远洋城",
          "origin": "远洋城",
          "location": {
            "lng": 118.175672,
            "lat": 39.667905
          },
          "accurate": 2
        },
        "人民购物广场",
        "古冶林西东工房",
        "林西百货大楼"
      ]
    },
    {
      "id": "W0042",
      "date": "21",
      "area": "高新区",
      "track": [
        "高新老庄子镇小城子村",
        {
          "district": "河北省唐山市路北区",
          "name": "盛华世家商业广场农贸水产综合批发市场",
          "origin": "盛华市场",
          "location": {
            "lng": 118.144541,
            "lat": 39.696604
          },
          "accurate": 2
        },
        "瓦房庄村"
      ]
    },
    {
      "id": "W0043",
      "date": "21",
      "area": "高新区",
      "track": [
        {
          "district": "河北省唐山市路北区",
          "name": "盛华世家商业广场农贸水产综合批发市场",
          "origin": "盛华市场",
          "location": {
            "lng": 118.144541,
            "lat": 39.696604
          },
          "accurate": 2
        },
        "詹官屯大众浴池",
        "魏庄子村委会"
      ]
    },
    {
      "id": "W0060",
      "date": "22",
      "area": "高新区",
      "track": [
        "高新党家庄村",
        {
          "district": "河北省唐山市路北区",
          "name": "盛华世家商业广场农贸水产综合批发市场",
          "origin": "盛华市场",
          "location": {
            "lng": 118.144541,
            "lat": 39.696604
          },
          "accurate": 2
        },
        "娘娘庙村道口菜鸟驿站"
      ]
    },
    {
      "id": "W0061",
      "date": "22",
      "area": "高新区",
      "track": [
        "高新党家庄村",
        {
          "district": "河北省唐山市路北区",
          "name": "盛华世家商业广场农贸水产综合批发市场",
          "origin": "盛华市场",
          "location": {
            "lng": 118.144541,
            "lat": 39.696604
          },
          "accurate": 2
        },
        "路南宝岛医院",
        "保定市安新县端村镇大淀头村",
        "安新县医院"
      ]
    },
    {
      "id": "W0062",
      "date": "22",
      "area": "高新区",
      "track": [
        "高新瓦官庄村",
        "娘娘庙村欢乐超市",
        {
          "district": "河北省唐山市路北区",
          "name": "盛华世家商业广场农贸水产综合批发市场",
          "origin": "盛华市场",
          "location": {
            "lng": 118.144541,
            "lat": 39.696604
          },
          "accurate": 2
        },
        "路北吾悦广场超市"
      ]
    },
    {
      "id": "W0063",
      "date": "22",
      "area": "高新区",
      "track": [
        "高新盛华公寓",
        {
          "district": "河北省唐山市路北区",
          "name": "盛华世家商业广场农贸水产综合批发市场",
          "origin": "盛华市场",
          "location": {
            "lng": 118.144541,
            "lat": 39.696604
          },
          "accurate": 2
        },
        "滦州安各庄镇西安各庄村",
        "胜利路菜市场"
      ]
    },
    {
      "id": "W0064",
      "date": "22",
      "area": "高新区",
      "track": [
        "吉庆里小区",
        {
          "district": "河北省唐山市路北区",
          "name": "盛华世家商业广场农贸水产综合批发市场",
          "origin": "盛华市场",
          "location": {
            "lng": 118.144541,
            "lat": 39.696604
          },
          "accurate": 2
        }
      ]
    },
    {
      "id": "W0065",
      "date": "22",
      "area": "高新区",
      "track": [
        "高新吉庆里小区",
        {
          "district": "河北省唐山市路北区",
          "name": "盛华世家商业广场农贸水产综合批发市场",
          "origin": "盛华市场",
          "location": {
            "lng": 118.144541,
            "lat": 39.696604
          },
          "accurate": 2
        },
        "庆翠堂头疗养生会馆",
        "滦州卧龙山庄小区",
        "大横山营村",
        "滦河大酒店"
      ]
    },
    {
      "id": "Q0002",
      "date": "19",
      "area": "路北区",
      "track": [
        {
          "district": "河北省唐山市路北区",
          "name": "梧桐大道",
          "origin": "梧桐大道小区",
          "location": {
            "lng": 118.144859,
            "lat": 39.658139
          },
          "accurate": 2
        },
        "唐钢设计院",
        "98路公交车",
        {
          "district": "河北省唐山市路南区",
          "name": "南湖金地羽毛球馆",
          "origin": "南湖金地羽毛球馆",
          "location": {
            "lng": 118.131413,
            "lat": 39.590967
          },
          "accurate": 2
        },
        {
          "district": "河北省唐山市路北区",
          "name": "蜀都酒楼",
          "origin": "蜀都酒楼",
          "location": {
            "lng": 118.180767,
            "lat": 39.67733
          },
          "accurate": 2
        },
        {
          "district": "河北省唐山市路北区",
          "name": "凤凰购物广场",
          "origin": "凤凰购物商场",
          "location": {
            "lng": 118.160637,
            "lat": 39.633057
          },
          "accurate": 2
        },
        {
          "district": "河北省唐山市路北区",
          "name": "八方购物广场",
          "origin": "八方购物广场",
          "location": {
            "lng": 118.161834,
            "lat": 39.632827
          },
          "accurate": 2
        },
        {
          "district": "河北省唐山市路北区",
          "name": "京厨久烤鸭店",
          "origin": "京厨久烤鸭店",
          "location": {
            "lng": 118.164134,
            "lat": 39.673474
          },
          "accurate": 2
        },
        {
          "district": "河北省唐山市路北区",
          "name": "唐山吾悦广场",
          "origin": "吾悦广场",
          "location": {
            "lng": 118.15551,
            "lat": 39.669007
          },
          "accurate": 2
        }
      ]
    },
    {
      "id": "Q0003",
      "date": "19",
      "area": "路北区",
      "track": [
        {
          "district": "河北省唐山市路北区",
          "name": "盛华世家商业广场农贸水产综合批发市场",
          "origin": "盛华市场",
          "location": {
            "lng": 118.144541,
            "lat": 39.696604
          },
          "accurate": 2
        },
        {
          "district": "河北省秦皇岛市卢龙县",
          "name": "卢龙县",
          "origin": "秦皇岛市卢龙县",
          "location": {
            "lng": 118.891931,
            "lat": 39.892564
          },
          "accurate": 2
        },
        {
          "district": "河北省唐山市路北区",
          "name": "唐山中心医院",
          "origin": "唐山中心医院",
          "location": {
            "lng": 118.138272,
            "lat": 39.669469
          },
          "accurate": 2
        }
      ]
    },
    {
      "id": "Q0004",
      "date": "19",
      "area": "路北区",
      "track": [
        {
          "district": "河北省唐山市路南区",
          "name": "中益诚达建设集团",
          "origin": "中益诚达建设集团",
          "location": {
            "lng": 118.180628,
            "lat": 39.61074
          },
          "accurate": 2
        },
        {
          "district": "河北省唐山市丰润区",
          "name": "茗园茶楼",
          "origin": "丰润区茗园茶楼",
          "location": {
            "lng": 118.144328,
            "lat": 39.825576
          },
          "accurate": 2
        },
        {
          "district": "河北省唐山市路北区",
          "name": "八方购物广场",
          "origin": "八方购物广场",
          "location": {
            "lng": 118.161834,
            "lat": 39.632827
          },
          "accurate": 2
        },
        {
          "district": "河北省唐山市路北区",
          "name": "君瑞市场文凤水产",
          "origin": "君瑞水产农贸市场",
          "location": {
            "lng": 118.108043,
            "lat": 39.651659
          },
          "accurate": 2
        },
        {
          "district": "河北省唐山市遵化市",
          "name": "绿叶火锅(华明南路店)",
          "origin": "遵化市绿叶火锅店",
          "location": {
            "lng": 117.956652,
            "lat": 40.178198
          },
          "accurate": 2
        },
        {
          "district": "河北省唐山市路北区",
          "name": "唐山中心医院",
          "origin": "唐山中心医院",
          "location": {
            "lng": 118.138272,
            "lat": 39.669469
          },
          "accurate": 2
        }
      ]
    },
    {
      "id": "Q0010",
      "date": "21",
      "area": "路北区",
      "track": [
        "路南南湖市民中心",
        "万达商场",
        "银泰城",
        "赵庄市场",
        "路北唐钢国际工程公司",
        "一统飘香酸菜鱼",
        "远方文学（中环广场西侧）",
        "凤凰园饺子宴（龙泽北路）",
        "裕华嘉苑小区"
      ]
    },
    {
      "id": "W0015",
      "date": "21",
      "area": "路北区",
      "track": [
        "路北鹭港小区",
        {
          "district": "河北省唐山市路北区",
          "name": "盛华世家商业广场农贸水产综合批发市场",
          "origin": "盛华市场",
          "location": {
            "lng": 118.144541,
            "lat": 39.696604
          },
          "accurate": 2
        }
      ]
    },
    {
      "id": "W0020",
      "date": "21",
      "area": "路北区",
      "track": [
        "路北保泰楼",
        {
          "district": "河北省唐山市路北区",
          "name": "唐山吾悦广场",
          "origin": "吾悦广场",
          "location": {
            "lng": 118.15551,
            "lat": 39.669007
          },
          "accurate": 2
        },
        {
          "district": "河北省唐山市路北区",
          "name": "远洋城",
          "origin": "远洋城",
          "location": {
            "lng": 118.175672,
            "lat": 39.667905
          },
          "accurate": 2
        },
        "爱琴海",
        "四季弘福饭店",
        "丰南家万佳超市",
        "唐山职业技术学院",
        {
          "district": "河北省唐山市路北区",
          "name": "盛华世家商业广场农贸水产综合批发市场",
          "origin": "盛华市场",
          "location": {
            "lng": 118.144541,
            "lat": 39.696604
          },
          "accurate": 2
        },
        "开平税北村"
      ]
    },
    {
      "id": "W0022",
      "date": "21",
      "area": "路北区",
      "track": [
        "路北税钢市场",
        "河茵市场",
        "龙东市场",
        "河北3号大嘉福超市",
        {
          "district": "河北省唐山市乐亭县",
          "name": "唐山佳华煤化工有限公司",
          "origin": "佳华煤化工有限公司",
          "location": {
            "lng": 119.033746,
            "lat": 39.258969
          },
          "accurate": 2
        },
        "古冶耐火小区"
      ]
    },
    {
      "id": "W0031",
      "date": "21",
      "area": "路北区",
      "track": [
        "吾悦广场步行街",
        "华岩路八方超市",
        "缇香小区底商“鲁大侠”饭店",
        "曹妃甸枫华高中",
        "路北怡景文园小区",
        "北新里小区",
        "祥荣里小区",
        "市第二医院",
        "路南南湖公园"
      ]
    },
    {
      "id": "W0035",
      "date": "21",
      "area": "路北区",
      "track": [
        "嘉瑞超市",
        "裕华道周家小厨",
        "路北怡景文园小区",
        "北新里小区",
        "祥荣里小区",
        "市第二医院",
        "路南南湖公园"
      ]
    },
    {
      "id": "W0028",
      "date": "21",
      "area": "路北区",
      "track": [
        "鹭港小区",
        "省安公寓",
        {
          "district": "河北省唐山市路北区",
          "name": "远洋城",
          "origin": "远洋城",
          "location": {
            "lng": 118.175672,
            "lat": 39.667905
          },
          "accurate": 2
        },
        "唐钢国际",
        {
          "district": "河北省唐山市路北区",
          "name": "唐山中心医院",
          "origin": "唐山中心医院",
          "location": {
            "lng": 118.138272,
            "lat": 39.669469
          },
          "accurate": 2
        },
        "兴盛大成小区",
        "开平区古楼庄",
        "容和景苑小区",
        "市第二医院",
        "龙泽路肯德基",
        "兴源道喜辣水煮鱼",
        "富力盛悦居",
        "大理路惠达卫浴",
        "甬妈妈1号店"
      ]
    },
    {
      "id": "W0033",
      "date": "21",
      "area": "路北区",
      "track": [
        "鑫汇海鲜火锅学院路店",
        "容和景苑小区",
        "市第二医院",
        "龙泽路肯德基",
        "兴源道喜辣水煮鱼",
        "富力盛悦居",
        "大理路惠达卫浴",
        "甬妈妈1号店"
      ]
    },
    {
      "id": "W0044",
      "date": "21",
      "area": "路北区",
      "track": [
        {
          "district": "河北省唐山市乐亭县",
          "name": "唐山佳华煤化工有限公司",
          "origin": "佳华煤化工有限公司",
          "location": {
            "lng": 119.033746,
            "lat": 39.258969
          },
          "accurate": 2
        },
        "路北好又香熟食店",
        "龙泽路红红木炭火锅店"
      ]
    },
    {
      "id": "W0054",
      "date": "22",
      "area": "路北区",
      "track": [
        "路北韩城镇万都国际小区",
        "韩城阳光超市",
        "利康医院",
        "华北理工大学附属医院",
        "爆肚辉饭店",
        "“童真心语”幼儿园",
        "丰润车管所第三分所",
        {
          "district": "河北省唐山市路北区",
          "name": "盛华世家商业广场农贸水产综合批发市场",
          "origin": "盛华市场",
          "location": {
            "lng": 118.144541,
            "lat": 39.696604
          },
          "accurate": 2
        }
      ]
    },
    {
      "id": "W0055",
      "date": "22",
      "area": "路北区",
      "track": [
        "路北韩城镇左岸彩虹苑小区",
        "超人影像",
        "鼎盛食品超市",
        "王氏拉面馆",
        "乐顺堂药房",
        "一米六零食店",
        "随想仓超市",
        "羊城小筑饭馆",
        "滦南胡各庄镇忠武跆拳道馆",
        "丰润DFK街舞",
        {
          "district": "河北省唐山市路北区",
          "name": "盛华世家商业广场农贸水产综合批发市场",
          "origin": "盛华市场",
          "location": {
            "lng": 118.144541,
            "lat": 39.696604
          },
          "accurate": 2
        }
      ]
    },
    {
      "id": "W0056",
      "date": "22",
      "area": "路北区",
      "track": [
        "路北韩城镇彩虹苑小区",
        "神童艺术幼儿园",
        "超人影像",
        "羊城小筑饭馆",
        "丰润北购商场"
      ]
    },
    {
      "id": "W0057",
      "date": "22",
      "area": "路北区",
      "track": [
        "路北龙泉西里小区",
        {
          "district": "河北省唐山市路北区",
          "name": "盛华世家商业广场农贸水产综合批发市场",
          "origin": "盛华市场",
          "location": {
            "lng": 118.144541,
            "lat": 39.696604
          },
          "accurate": 2
        },
        "龙王庙市场"
      ]
    },
    {
      "id": "W0058",
      "date": "22",
      "area": "路北区",
      "track": [
        "路北裕华嘉苑小区",
        "高新盛世花园酒店",
        "滦南翰林鑫苑小区",
        "唐百超市（滦南）"
      ]
    },
    {
      "id": "W0059",
      "date": "22",
      "area": "路北区",
      "track": [
        "路北鹭港小区",
        "凤凰园烤鸭店（新华道店）",
        {
          "district": "河北省唐山市路北区",
          "name": "盛华世家商业广场农贸水产综合批发市场",
          "origin": "盛华市场",
          "location": {
            "lng": 118.144541,
            "lat": 39.696604
          },
          "accurate": 2
        },
        "三和牛肉板面馆（大庆东道与火炬路交叉口）"
      ]
    },
    {
      "id": "W0002",
      "date": "20",
      "area": "路南区",
      "track": [
        "路南鑫坤冷库",
        "老胡新天地卤肉饭馆",
        "华盛超市（新华道店）",
        "四海制冷（永红桥附近）",
        "南湖医院",
        "路南市场监督管理局永红桥分局",
        "文化路与国防道交叉口某驴肉火烧馆",
        "吉祥彩钢"
      ]
    },
    {
      "id": "W0018",
      "date": "21",
      "area": "路南区",
      "track": [
        "唐山火车站",
        "山东省滨州市无棣县车王镇李什村",
        "路南中红鲜鸡冷冻厂"
      ]
    },
    {
      "id": "W0019",
      "date": "21",
      "area": "路南区",
      "track": [
        {
          "district": "河北省唐山市路北区",
          "name": "盛华世家商业广场农贸水产综合批发市场",
          "origin": "盛华市场",
          "location": {
            "lng": 118.144541,
            "lat": 39.696604
          },
          "accurate": 2
        },
        "路南兴泰里小区"
      ]
    },
    {
      "id": "W0021",
      "date": "21",
      "area": "路南区",
      "track": [
        "路南景荣社区",
        {
          "district": "河北省唐山市路北区",
          "name": "盛华世家商业广场农贸水产综合批发市场",
          "origin": "盛华市场",
          "location": {
            "lng": 118.144541,
            "lat": 39.696604
          },
          "accurate": 2
        }
      ]
    },
    {
      "id": "W0026",
      "date": "21",
      "area": "路南区",
      "track": [
        "路南西大夫坨村",
        {
          "district": "河北省唐山市路北区",
          "name": "盛华世家商业广场农贸水产综合批发市场",
          "origin": "盛华市场",
          "location": {
            "lng": 118.144541,
            "lat": 39.696604
          },
          "accurate": 2
        }
      ]
    },
    {
      "id": "W0029",
      "date": "21",
      "area": "路南区",
      "track": [
        "路南宋谢庄",
        {
          "district": "河北省唐山市路北区",
          "name": "盛华世家商业广场农贸水产综合批发市场",
          "origin": "盛华市场",
          "location": {
            "lng": 118.144541,
            "lat": 39.696604
          },
          "accurate": 2
        }
      ]
    },
    {
      "id": "W0040",
      "date": "21",
      "area": "路南区",
      "track": [
        "开平马家沟跃华楼",
        "启明星幼儿园",
        "民康诊所",
        "路南区仁泰里小区"
      ]
    },
    {
      "id": "W0046",
      "date": "22",
      "area": "路南区",
      "track": [
        "路南双新楼小区",
        "第九中学",
        "双新楼利坤便利店",
        "路北凤凰新城唐山银行",
        "高新庆丰加油站",
        "清科园",
        "壹玖捌伍快餐店食趣石代",
        {
          "district": "河北省唐山市路北区",
          "name": "盛华世家商业广场农贸水产综合批发市场",
          "origin": "盛华市场",
          "location": {
            "lng": 118.144541,
            "lat": 39.696604
          },
          "accurate": 2
        }
      ]
    },
    {
      "id": "W0047",
      "date": "22",
      "area": "路南区",
      "track": [
        "路南福乐园小区",
        "七彩小饭桌",
        "南新道唐澄超市",
        "路北爱拉屋烘培工坊",
        "勒泰城小区",
        "君瑞市场"
      ]
    },
    {
      "id": "W0048",
      "date": "22",
      "area": "路南区",
      "track": [
        "路南张丁庄村",
        {
          "district": "河北省唐山市路北区",
          "name": "盛华世家商业广场农贸水产综合批发市场",
          "origin": "盛华市场",
          "location": {
            "lng": 118.144541,
            "lat": 39.696604
          },
          "accurate": 2
        }
      ]
    },
    {
      "id": "W0049",
      "date": "22",
      "area": "路南区",
      "track": [
        "路南新华楼小区",
        "滦承楼小区",
        "仁恒湖滨城小区",
        "和泓阳光小区",
        "路北金域蓝湾小区",
        "景泰翰林小区",
        {
          "district": "河北省唐山市路北区",
          "name": "盛华世家商业广场农贸水产综合批发市场",
          "origin": "盛华市场",
          "location": {
            "lng": 118.144541,
            "lat": 39.696604
          },
          "accurate": 2
        }
      ]
    },
    {
      "id": "W0050",
      "date": "22",
      "area": "路南区",
      "track": [
        "路南国防楼小区",
        "西新社区卫生服务站",
        {
          "district": "河北省唐山市路北区",
          "name": "盛华世家商业广场农贸水产综合批发市场",
          "origin": "盛华市场",
          "location": {
            "lng": 118.144541,
            "lat": 39.696604
          },
          "accurate": 2
        }
      ]
    },
    {
      "id": "W0051",
      "date": "22",
      "area": "路南区",
      "track": [
        "路南西大夫坨村",
        "中红鲜鸡冷冻厂（唐柏路附近）"
      ]
    },
    {
      "id": "W0052",
      "date": "22",
      "area": "路南区",
      "track": [
        "路南赵庄小区国防楼",
        "赵庄小区菜鸟驿站",
        "赵庄早市",
        "渤海豪庭小区",
        "路北曙光楼小区",
        "曙光楼社区牙科诊所",
        "振华购物中心",
        "八方购物中心超市"
      ]
    },
    {
      "id": "W0053",
      "date": "22",
      "area": "路南区",
      "track": [
        "路南南湖金地小区",
        {
          "district": "河北省唐山市路北区",
          "name": "盛华世家商业广场农贸水产综合批发市场",
          "origin": "盛华市场",
          "location": {
            "lng": 118.144541,
            "lat": 39.696604
          },
          "accurate": 2
        }
      ]
    },
    {
      "id": "Q0006",
      "date": "19",
      "area": "开平区",
      "track": [
        "税钢楼",
        "税钢小区早市",
        "税钢小学",
        {
          "district": "河北省唐山市古冶区",
          "name": "唐钢古冶胜利小区",
          "origin": "古冶区唐钢胜利小区",
          "location": {
            "lng": 118.409881,
            "lat": 39.723445
          },
          "accurate": 2
        },
        {
          "district": "河北省唐山市古冶区",
          "name": "美乐饭店(唐山市古冶区渔政监督管理站东)",
          "origin": "美乐饭店",
          "location": {
            "lng": 118.409955,
            "lat": 39.7259
          },
          "accurate": 2
        },
        "开平区殡仪馆",
        "唐客隆澡堂"
      ]
    },
    {
      "id": "Q0007",
      "date": "19",
      "area": "开平区",
      "track": [
        "朝新楼",
        "唐山利满商贸",
        {
          "district": "河北省唐山市古冶区",
          "name": "唐钢古冶胜利小区",
          "origin": "古冶区唐钢胜利小区",
          "location": {
            "lng": 118.409881,
            "lat": 39.723445
          },
          "accurate": 2
        },
        "荣盛道华莱士；路南区税务局",
        "开平区凤凰园西侧服装店",
        "新华超市",
        "京华制管有限公司生活区",
        "新城道口彦东商店",
        "西新苑市场",
        "唐山农业银行开平支行",
        "开平区政府北门艾灸店",
        "西新苑朝新诊所",
        "康之家药店"
      ]
    },
    {
      "id": "Q0013",
      "date": "21",
      "area": "开平区",
      "track": [
        "马家沟启明星幼儿园",
        "志方超市",
        "开平镇前陡河村",
        "弘慈医院"
      ]
    },
    {
      "id": "W0009",
      "date": "21",
      "area": "开平区",
      "track": [
        "紫荆花苑小区",
        "启明星幼儿园"
      ]
    },
    {
      "id": "W0011",
      "date": "21",
      "area": "开平区",
      "track": [
        "开平越河镇小营村",
        {
          "district": "河北省唐山市路北区",
          "name": "盛华世家商业广场农贸水产综合批发市场",
          "origin": "盛华市场",
          "location": {
            "lng": 118.144541,
            "lat": 39.696604
          },
          "accurate": 2
        }
      ]
    },
    {
      "id": "W0012",
      "date": "21",
      "area": "开平区",
      "track": [
        "启明星幼儿园",
        "马家沟紫荆花苑小区"
      ]
    },
    {
      "id": "W0013",
      "date": "21",
      "area": "开平区",
      "track": [
        "马家沟紫荆花苑小区",
        "程程理发店",
        "马家沟市场",
        "烈火蛋糕",
        "唐泰生鲜超市",
        "骨里香熟食店",
        "德寿堂传统中医诊所"
      ]
    },
    {
      "id": "W0017",
      "date": "21",
      "area": "开平区",
      "track": [
        "开平马家沟",
        "启明星幼儿园",
        "开平美食街",
        "马家沟工商银行",
        "光华楼小区",
        "马家沟后屯大集",
        "丰润静园永和超市",
        "南关",
        "北关唐人医药",
        "滦州郭庄村"
      ]
    },
    {
      "id": "W0025",
      "date": "21",
      "area": "开平区",
      "track": [
        "开平前陡河村",
        "屈庄大桥附近口口香烧烤",
        "志方超市",
        {
          "district": "河北省唐山市路北区",
          "name": "盛华世家商业广场农贸水产综合批发市场",
          "origin": "盛华市场",
          "location": {
            "lng": 118.144541,
            "lat": 39.696604
          },
          "accurate": 2
        }
      ]
    },
    {
      "id": "W0027",
      "date": "21",
      "area": "开平区",
      "track": [
        "陡河村",
        "马家沟启明星幼儿园",
        "刘官屯村北湿巾厂",
        "马家沟唐人医药",
        "志方购物",
        "弘慈医院"
      ]
    },
    {
      "id": "W0036",
      "date": "21",
      "area": "开平区",
      "track": [
        "开平河联园B区",
        {
          "district": "河北省唐山市路北区",
          "name": "盛华世家商业广场农贸水产综合批发市场",
          "origin": "盛华市场",
          "location": {
            "lng": 118.144541,
            "lat": 39.696604
          },
          "accurate": 2
        }
      ]
    },
    {
      "id": "W0070",
      "date": "22",
      "area": "开平区",
      "track": [
        "开平古镇新城璞园小区",
        "开平镇石家庄村",
        "尚誉食府",
        "开平公园",
        "屈庄集",
        "六号集",
        "开平集",
        "凤凰花卉市场",
        {
          "district": "河北省唐山市路北区",
          "name": "盛华世家商业广场农贸水产综合批发市场",
          "origin": "盛华市场",
          "location": {
            "lng": 118.144541,
            "lat": 39.696604
          },
          "accurate": 2
        },
        "许鄄子集",
        "路南旭安园小区"
      ]
    },
    {
      "id": "W0071",
      "date": "22",
      "area": "开平区",
      "track": [
        "开平双桥镇冶里村",
        {
          "district": "河北省唐山市路北区",
          "name": "盛华世家商业广场农贸水产综合批发市场",
          "origin": "盛华市场",
          "location": {
            "lng": 118.144541,
            "lat": 39.696604
          },
          "accurate": 2
        }
      ]
    },
    {
      "id": "W0030",
      "date": "21",
      "area": "滦州市",
      "track": [
        "高新娘娘庙村",
        {
          "district": "河北省唐山市路北区",
          "name": "盛华世家商业广场农贸水产综合批发市场",
          "origin": "盛华市场",
          "location": {
            "lng": 118.144541,
            "lat": 39.696604
          },
          "accurate": 2
        },
        "滦州九百户村",
        "郝庄村",
        "安家楼村"
      ]
    },
    {
      "id": "W0077",
      "date": "22",
      "area": "滦州市",
      "track": [
        "滦州郭庄村",
        "顾家庄村",
        "秦皇岛市昌黎县兴国钢铁"
      ]
    },
    {
      "id": "W0078",
      "date": "22",
      "area": "滦州市",
      "track": [
        "滦州古城办郭庄村",
        "岩山商场",
        "老站村彩票站",
        "东流各庄村",
        "郭庄村头烧烤店"
      ]
    },
    {
      "id": "Q0005",
      "date": "19",
      "area": "古冶区",
      "track": [
        {
          "district": "河北省唐山市古冶区",
          "name": "唐钢古冶胜利小区",
          "origin": "古冶区唐钢胜利小区",
          "location": {
            "lng": 118.409881,
            "lat": 39.723445
          },
          "accurate": 2
        },
        {
          "district": "河北省唐山市古冶区",
          "name": "中国农业银行(唐山古冶车站分理处)",
          "origin": "中国农业银行(唐山古冶车站分理处)",
          "location": {
            "lng": 118.433726,
            "lat": 39.734699
          },
          "accurate": 2
        },
        "中国邮政储蓄银行(西新楼支行)"
      ]
    },
    {
      "id": "W0023",
      "date": "21",
      "area": "古冶区",
      "track": [
        "赵各庄第三小学",
        "圣鸿鲜花庆典",
        "古冶区中医院",
        "赵各庄融园小区"
      ]
    },
    {
      "id": "W0032",
      "date": "21",
      "area": "古冶区",
      "track": [
        "古冶赵各庄矿劳动服务公司",
        "赵各庄三村林西楼",
        "马矿新区",
        {
          "district": "河北省唐山市路北区",
          "name": "盛华世家商业广场农贸水产综合批发市场",
          "origin": "盛华市场",
          "location": {
            "lng": 118.144541,
            "lat": 39.696604
          },
          "accurate": 2
        },
        "古冶东华小区",
        "美珍小火锅"
      ]
    },
    {
      "id": "W0045",
      "date": "21",
      "area": "古冶区",
      "track": [
        "古冶区耐火小区",
        {
          "district": "河北省唐山市古冶区",
          "name": "美乐饭店(唐山市古冶区渔政监督管理站东)",
          "origin": "美乐饭店",
          "location": {
            "lng": 118.409955,
            "lat": 39.7259
          },
          "accurate": 2
        }
      ]
    },
    {
      "id": "W0072",
      "date": "22",
      "area": "古冶区",
      "track": [
        "大庄坨村",
        "大庄坨集市"
      ]
    },
    {
      "id": "W0073",
      "date": "22",
      "area": "古冶区",
      "track": [
        "古冶耐火楼小区"
      ]
    },
    {
      "id": "W0074",
      "date": "22",
      "area": "古冶区",
      "track": [
        "新村新光楼",
        "大庄坨村"
      ]
    },
    {
      "id": "W0075",
      "date": "22",
      "area": "古冶区",
      "track": [
        "古冶大庄坨村",
        "凯申数字影院",
        "兰亭华府小区",
        "大庄坨常乐浴池",
        "林西商城",
        "景悦蓝湾",
        "古冶区社保局一层大厅",
        "路南万达广场",
        "南湖医院",
        "南方灯具城",
        "路北唐山百货大楼",
        "罗浮宫饭店（百货大楼附近）",
        {
          "district": "河北省唐山市路北区",
          "name": "远洋城",
          "origin": "远洋城",
          "location": {
            "lng": 118.175672,
            "lat": 39.667905
          },
          "accurate": 2
        },
        "爱琴海",
        "丰润板市",
        "开平红星美凯龙三棵树漆门店"
      ]
    },
    {
      "id": "W0076",
      "date": "22",
      "area": "古冶区",
      "track": [
        "唐家庄街道铁路工房",
        "第二实验小学",
        "芳华舞蹈班",
        "震兴道市场大厅"
      ]
    },
    {
      "id": "Q0008",
      "date": "20",
      "area": "丰润区",
      "track": [
        "丰润石各庄镇女过庄村",
        "丰润早市",
        {
          "district": "河北省唐山市路北区",
          "name": "盛华世家商业广场农贸水产综合批发市场",
          "origin": "盛华市场",
          "location": {
            "lng": 118.144541,
            "lat": 39.696604
          },
          "accurate": 2
        },
        "老庄子镇曼迪超市（原金客隆超市）及斜对面鸭货熟食店",
        "三女河村菜鸟驿站"
      ]
    },
    {
      "id": "Q0009",
      "date": "20",
      "area": "丰润区",
      "track": [
        "丰润开尔尚城小区",
        "浭阳雅园智慧托管",
        "浭阳锦园小区",
        "晨坤文体办公用品店",
        "高新沙雾庄村",
        {
          "district": "河北省唐山市路北区",
          "name": "盛华世家商业广场农贸水产综合批发市场",
          "origin": "盛华市场",
          "location": {
            "lng": 118.144541,
            "lat": 39.696604
          },
          "accurate": 2
        },
        "老庄子银龙加油站",
        "老庄子镇十字街",
        "开越路比亚迪和吉利汽车4S店",
        "唐丰路长安汽车4S店",
        "大庆道奇瑞汽车4S店"
      ]
    },
    {
      "id": "Q0011",
      "date": "21",
      "area": "丰润区",
      "track": [
        "丰润女过庄村",
        "丰润早市",
        "高新老庄子镇曼迪超市"
      ]
    },
    {
      "id": "Q0012",
      "date": "21",
      "area": "丰润区",
      "track": [
        "丰润女过庄村",
        "丰润早市",
        "高新老庄子镇曼迪超市"
      ]
    },
    {
      "id": "Q0015",
      "date": "22",
      "area": "丰润区",
      "track": [
        "丰润银铺乡前贾庄村",
        "福慧超市",
        "开平启明星幼儿园",
        "丝潮理发馆",
        "顺达广告公司",
        "供销加油站"
      ]
    },
    {
      "id": "W0014",
      "date": "21",
      "area": "丰润区",
      "track": [
        "丰润常庄村",
        "城西王家楼市场",
        "六小区",
        "新军屯集",
        "白各庄集",
        "恒金仓储冷库",
        "太平路街道办事处",
        "中泰加油站",
        {
          "district": "河北省唐山市路北区",
          "name": "盛华世家商业广场农贸水产综合批发市场",
          "origin": "盛华市场",
          "location": {
            "lng": 118.144541,
            "lat": 39.696604
          },
          "accurate": 2
        }
      ]
    },
    {
      "id": "W0034",
      "date": "21",
      "area": "丰润区",
      "track": [
        "市游泳馆",
        "丰润开尔尚城家园",
        "左家坞村",
        "西金桥双语学校",
        "东方诊所",
        {
          "district": "河北省唐山市路北区",
          "name": "盛华世家商业广场农贸水产综合批发市场",
          "origin": "盛华市场",
          "location": {
            "lng": 118.144541,
            "lat": 39.696604
          },
          "accurate": 2
        }
      ]
    },
    {
      "id": "W0066",
      "date": "22",
      "area": "丰润区",
      "track": [
        "丰润任各庄镇肘各庄村",
        "市协和医院",
        {
          "district": "河北省唐山市路北区",
          "name": "盛华世家商业广场农贸水产综合批发市场",
          "origin": "盛华市场",
          "location": {
            "lng": 118.144541,
            "lat": 39.696604
          },
          "accurate": 2
        }
      ]
    },
    {
      "id": "W0067",
      "date": "22",
      "area": "丰润区",
      "track": [
        "丰润任各庄镇肘各庄村",
        "纪镇屯村",
        "志伟超市",
        "华容带钢厂",
        "媛福达超市",
        "任各庄镇卫生院",
        "迎春药店",
        "路南协和医院",
        "丰南众贸车队",
        "盛伊物流",
        "物产中大物流",
        "天津大邱庄友发钢管厂",
        "天津海虹金属公司"
      ]
    },
    {
      "id": "W0068",
      "date": "22",
      "area": "丰润区",
      "track": [
        "左家坞镇左家坞村",
        "开尔尚城小区"
      ]
    },
    {
      "id": "W0069",
      "date": "22",
      "area": "丰润区",
      "track": [
        "任各庄镇肘各庄村",
        "任各庄中心小学"
      ]
    },
    {
      "id": "W0007",
      "date": "21",
      "area": "丰南区",
      "track": [
        "丰南岔河金河小区",
        "张庄子村口北侧饭店",
        {
          "district": "河北省唐山市路北区",
          "name": "盛华世家商业广场农贸水产综合批发市场",
          "origin": "盛华市场",
          "location": {
            "lng": 118.144541,
            "lat": 39.696604
          },
          "accurate": 2
        }
      ]
    },
    {
      "id": "W0037",
      "date": "21",
      "area": "迁西县",
      "track": [
        "迁西东荒峪镇下川村",
        "浤源超市（韩庄中学附近）",
        "路北君瑞市场",
        {
          "district": "河北省唐山市路北区",
          "name": "盛华世家商业广场农贸水产综合批发市场",
          "origin": "盛华市场",
          "location": {
            "lng": 118.144541,
            "lat": 39.696604
          },
          "accurate": 2
        }
      ]
    },
    {
      "id": "W0041",
      "date": "21",
      "area": "曹妃甸",
      "track": [
        "曹妃甸季景华庭小区",
        "荣域华府小区",
        "远通批发市场",
        "唐海购物中心",
        "金色名苑底商臻鲜海鲜店",
        "郑氏牙科",
        "西玉坨庄",
        "六场",
        "路北君瑞市场",
        {
          "district": "河北省唐山市路北区",
          "name": "盛华世家商业广场农贸水产综合批发市场",
          "origin": "盛华市场",
          "location": {
            "lng": 118.144541,
            "lat": 39.696604
          },
          "accurate": 2
        }
      ]
    },
    {
      "id": "W0001",
      "date": "20",
      "area": "玉田县",
      "track": [
        "玉田虹桥镇珠树坞三村",
        "二郎庙市场",
        "金玉市场",
        "鸦鸿桥镇双双超市旁某饺子馆",
        "虹桥镇中学（未进校）",
        "南环路核酸检测点等",
        {
          "district": "河北省唐山市路北区",
          "name": "盛华世家商业广场农贸水产综合批发市场",
          "origin": "盛华市场",
          "location": {
            "lng": 118.144541,
            "lat": 39.696604
          },
          "accurate": 2
        },
        "路北君瑞市场"
      ]
    },
    {
      "id": "W0079",
      "date": "22",
      "area": "玉田县",
      "track": [
        "玉田亮甲店镇十五里铺村",
        "范家庄大集",
        "小定府大集",
        "韩家林大集",
        "亮甲店村大集",
        "小港村大集",
        "亮甲店镇佳兴超市",
        "彤宇超市",
        "宏利超市",
        "宏盛超市",
        {
          "district": "河北省唐山市路北区",
          "name": "盛华世家商业广场农贸水产综合批发市场",
          "origin": "盛华市场",
          "location": {
            "lng": 118.144541,
            "lat": 39.696604
          },
          "accurate": 2
        }
      ]
    }
  ]
}
